[
  {
    "name": "수색차량기지 동쪽 교차",
    "lat": 37.5741,
    "lon": 126.8934,
    "note": "수색역~디지털미디어시티역 구간, 수색 차량기지로 인한 주민 단절 심각"
  },
  {
    "name": "경부선 노량진-대방 구간",
    "lat": 37.5124,
    "lon": 126.9419,
    "note": "노량진~대방역 사이 경부선, 신대방삼거리 주민 이동 단절"
  },
  {
    "name": "경원선 월계-광운대 구간",
    "lat": 37.6195,
    "lon": 127.0594,
    "note": "월계동~광운대역 인근, 노원구 주민 동서 이동 제약"
  },
  {
    "name": "경인선 구로-가산 구간",
    "lat": 37.4924,
    "lon": 126.8888,
    "note": "구로공단 일대, 경인선으로 남북 이동 단절"
  },
  {
    "name": "중랑천 철교 상부 경춘선",
    "lat": 37.5958,
    "lon": 127.0831,
    "note": "중랑구 망우동 인근, 경춘선 지상 구간으로 동서 단절"
  }
]
